{
  "name": "GET /reverse?categories",
  "priorityThresh": 3,
  "endpoint": "reverse",
  "description": "Verify that the API supports longitude wrapping as expected.",
  "tests": [
    {
      "id": 3,
      "status": "pass",
      "user": "sev",
      "type": "dev",
      "in": {
        "lat": 40.72956780913899,
        "lon": -73.99463653564453
      },
      "expected": {
        "properties": [
          {
            "geocoding": {
              "country_a": "USA",
              "country": "United States",
              "region": "New York",
              "region_a": "NY",
              "county": "New York County",
              "localadmin": "Manhattan",
              "locality": "New York",
              "neighbourhood": "NoHo"
            }
          }
        ]
      }
    },
    {
      "id": 4,
      "status": "pass",
      "user": "sev",
      "type": "dev",
      "in": {
        "lat": 40.72956780913899,
        "lon": 286.00536346435547
      },
      "expected": {
        "properties": [
          {
            "geocoding": {
              "country_a": "USA",
              "country": "United States",
              "region": "New York",
              "region_a": "NY",
              "county": "New York County",
              "localadmin": "Manhattan",
              "locality": "New York",
              "neighbourhood": "NoHo"
            }
          }
        ]
      }
    },
    {
      "id": 5,
      "status": "pass",
      "user": "sev",
      "type": "dev",
      "in": {
        "lat": 40.72956780913899,
        "lon": -433.99463653564453
      },
      "expected": {
        "properties": [
          {
            "geocoding": {
              "country_a": "USA",
              "country": "United States",
              "region": "New York",
              "region_a": "NY",
              "county": "New York County",
              "localadmin": "Manhattan",
              "locality": "New York",
              "neighbourhood": "NoHo"
            }
          }
        ]
      }
    },
    {
      "id": 5,
      "status": "pass",
      "user": "sev",
      "type": "dev",
      "in": {
        "lat": 40.72956780913899,
        "lon": -793.9946365356445
      },
      "expected": {
        "properties": [
          {
            "geocoding": {
              "country_a": "USA",
              "country": "United States",
              "region": "New York",
              "region_a": "NY",
              "county": "New York County",
              "localadmin": "Manhattan",
              "locality": "New York",
              "neighbourhood": "NoHo"
            }
          }
        ]
      }
    },
    {
      "id": 6,
      "status": "pass",
      "user": "orangejulius",
      "type": "dev",
      "in": {
        "lat": 40.744131,
        "lon": 286.009575
      },
      "expected": {
        "properties": [
          {
            "geocoding": {
              "country_a": "USA",
              "country": "United States",
              "region": "New York",
              "region_a": "NY",
              "county": "New York County",
              "localadmin": "Manhattan",
              "locality": "New York",
              "name": "30 West 26th Street"
            }
          }
        ]
      }
    },
    {
      "id": 7,
      "status": "pass",
      "user": "orangejulius",
      "type": "dev",
      "in": {
        "lat": 40.744131,
        "lon": -433.990425
      },
      "expected": {
        "properties": [
          {
            "geocoding": {
              "country_a": "USA",
              "country": "United States",
              "region": "New York",
              "region_a": "NY",
              "county": "New York County",
              "localadmin": "Manhattan",
              "locality": "New York",
              "name": "30 West 26th Street"
            }
          }
        ]
      }
    },
    {
      "id": 8,
      "status": "pass",
      "user": "orangejulius",
      "type": "dev",
      "in": {
        "lat": 139.255869,
        "lon": 106.009575
      },
      "expected": {
        "properties": [
          {
            "geocoding": {
              "country_a": "USA",
              "country": "United States",
              "region": "New York",
              "region_a": "NY",
              "county": "New York County",
              "localadmin": "Manhattan",
              "locality": "New York",
              "name": "30 West 26th Street"
            }
          }
        ]
      }
    }
  ]
}
